,City,Cloudiness,Country,Date,Humidity,Latitude,Longitude,Maximum Temperature,Wind Speed
0,ushuaia,90,AR,1544666400,71,-54.81,-68.31,11.0,3.6
1,tessalit,8,ML,1544668429,43,20.2,1.01,6.35,1.21
2,provideniya,90,RU,1544664600,72,64.42,-173.23,-11.0,5.0
3,rikitea,92,PF,1544667185,100,-23.12,-134.97,23.2,4.76
4,jamestown,76,AU,1544667028,67,-33.21,138.6,14.33,9.16
5,punta arenas,90,CL,1544662800,76,-53.16,-70.91,11.0,4.1
6,ocos,20,GT,1544665200,94,14.51,-92.19,25.0,4.71
7,northam,20,AU,1544665800,65,51.04,-4.21,7.0,10.8
8,tura,0,IN,1544668258,76,25.52,90.21,18.05,2.16
9,kapaa,40,US,1544666160,64,22.08,-159.32,28.3,10.8
10,kurilsk,44,RU,1544668259,100,45.23,147.88,-0.12,6.71
11,barrow,0,GB,1544668260,53,-38.31,-60.23,19.0,5.11
12,yongan,0,CN,1544668260,41,39.7,113.69,-8.82,1.36
13,cherskiy,32,RU,1544668261,48,68.75,161.3,-30.5,1.96
14,saint anthony,1,US,1544666160,80,43.97,-111.68,-3.9,1.36
15,georgetown,20,IN,1544666400,94,6.8,-58.16,27.0,2.1
16,hobart,75,AU,1544666400,56,-42.88,147.33,23.0,7.2
17,cape town,20,ZA,1544666400,82,-33.93,18.42,14.0,2.1
18,tuktoyaktuk,75,CA,1544666400,76,69.44,-133.03,-21.0,7.7
19,whitehorse,75,CA,1544666400,73,60.72,-135.06,-7.0,1.5
20,ilulissat,75,GL,1544665800,85,69.22,-51.1,-10.0,2.1
21,tasiilaq,80,GL,1544665800,80,65.61,-37.64,2.0,14.9
22,leningradskiy,64,RU,1544668267,98,69.38,178.42,-19.72,8.71
23,deputatskiy,36,RU,1544668268,8,69.3,139.9,-34.5,1.21
24,mar del plata,8,AR,1544668214,41,-46.43,-67.52,18.45,5.61
25,chuy,0,KG,1544668269,92,-33.69,-53.46,17.18,4.46
26,vostok,56,RU,1544668270,64,46.45,135.83,-15.37,0.96
27,upernavik,64,GL,1544668270,100,72.79,-56.15,-6.57,1.01
28,glendive,90,US,1544667300,92,47.11,-104.71,1.1,11.8
29,the valley,20,AI,1544666400,73,18.22,-63.06,25.0,2.6
30,severo-kurilsk,24,RU,1544668272,100,50.68,156.12,-2.65,5.06
31,albany,40,AU,1544666040,59,42.65,-73.75,-5.0,3.1
32,naze,12,JP,1544668273,96,5.43,7.07,22.55,1.51
33,tiksi,0,RU,1544668274,58,71.64,128.87,-25.97,11.01
34,naranjito,20,HN,1544666400,78,-2.17,-79.46,25.0,6.7
35,kissidougou,8,GN,1544668275,84,9.19,-10.1,19.08,1.31
36,vaini,0,TO,1544666400,82,15.34,74.49,15.0,1.36
37,butaritari,68,KI,1544668276,100,3.07,172.79,29.68,6.91
38,garissa,80,KE,1544668277,94,-0.46,39.64,21.45,2.21
39,rio grande,92,BR,1544668277,95,-32.03,-52.1,21.18,3.46
40,hithadhoo,80,MV,1544668278,100,-0.6,73.08,26.75,4.21
41,portland,90,AU,1544666160,71,45.52,-122.67,10.0,5.7
42,bluff,92,NZ,1544668279,50,-23.58,149.07,31.45,4.51
43,port elizabeth,1,VC,1544666160,84,39.31,-74.98,1.9,2.06
44,victoria,75,PH,1544666400,70,5.28,115.24,31.0,2.1
45,ribeira grande,24,PT,1544668281,100,38.52,-28.7,16.88,6.51
46,amarkantak,0,IN,1544668322,90,22.67,81.76,15.6,1.66
47,hilo,40,US,1544665980,66,19.71,-155.08,26.1,4.1
48,cockburn town,68,BS,1544668293,100,21.46,-71.14,25.58,8.51
49,codrington,36,AU,1544666400,48,-28.95,153.24,32.0,4.6
50,castro,24,ES,1544666400,87,-42.48,-73.76,8.0,2.1
51,khatanga,76,RU,1544668325,75,71.98,102.47,-11.95,7.11
52,haines junction,32,CA,1544668325,76,60.75,-137.51,-16.75,1.61
53,yellowknife,90,CA,1544666400,78,62.45,-114.38,-12.0,6.7
54,nouadhibou,0,MR,1544668327,67,20.93,-17.03,18.38,8.06
55,labuhan,92,ID,1544668328,95,-2.54,115.51,23.83,1.31
56,bilma,0,NE,1544668328,61,18.69,12.92,6.88,1.21
57,christchurch,80,NZ,1544666400,82,-43.53,172.64,17.0,3.6
58,vila franca do campo,40,PT,1544666400,76,37.72,-25.43,11.0,2.1
59,tyler,90,US,1544667300,80,32.35,-95.3,16.1,4.6
60,yinchuan,76,CN,1544668331,55,38.48,106.21,-8.0,2.21
61,carson city,1,US,1544666100,35,39.16,-119.77,6.1,2.1
62,port alfred,76,ZA,1544668332,97,-33.59,26.89,18.35,4.86
63,katsuura,40,JP,1544666400,70,33.93,134.5,9.0,5.1
64,daru,0,PG,1544668333,87,7.99,-10.85,21.88,1.56
65,avarua,75,CK,1544666400,74,-21.21,-159.78,26.0,2.6
66,la ronge,5,CA,1544666400,74,55.1,-105.3,-2.0,4.6
67,rumford,1,US,1544667300,84,44.55,-70.55,-11.1,0.96
68,taltal,8,PH,1544668336,98,-25.41,-70.49,13.48,0.11
69,atuona,68,PF,1544668336,100,-9.8,-139.03,27.55,6.81
70,hami,0,CN,1544668337,50,42.84,93.51,-17.15,1.51
71,north platte,1,US,1544665980,91,41.12,-100.77,-4.4,2.1
72,burnie,92,AU,1544668338,93,-41.05,145.91,17.13,10.16
73,laguna,5,AU,1544665200,72,27.52,-110.01,17.0,1.0
74,statesboro,1,US,1544667300,95,32.45,-81.78,5.6,1.16
75,bonham,90,US,1544666160,89,33.58,-96.18,16.1,5.1
76,cap malheureux,40,MU,1544666400,83,-19.98,57.61,25.0,2.1
77,busselton,0,AU,1544668341,74,-33.64,115.35,23.93,3.86
78,methoni,92,GR,1544668341,100,36.82,21.7,15.13,6.01
79,fortuna,0,ES,1544666400,58,38.18,-1.13,14.0,4.1
80,cairns,20,AU,1544666400,70,-16.92,145.77,30.0,4.1
81,aketi,0,CD,1544668343,85,2.74,23.78,21.7,0.96
82,faanui,64,PF,1544668344,100,-16.48,-151.75,28.3,2.66
83,ust-tsilma,80,RU,1544668344,87,65.44,52.15,-4.02,2.96
84,miyako,75,JP,1544666400,49,33.63,130.94,9.0,6.2
85,taoudenni,0,ML,1544668346,50,22.68,-3.98,8.1,1.26
86,arraial do cabo,0,BR,1544668173,93,-22.97,-42.02,23.38,5.46
87,ambilobe,0,MG,1544668347,92,-13.19,49.05,20.55,1.51
88,bredasdorp,56,ZA,1544666400,82,-34.53,20.04,13.0,2.1
89,namibe,0,AO,1544668348,100,-15.19,12.15,20.55,1.66
90,maceio,75,BR,1544666400,78,-9.67,-35.74,25.0,2.1
91,san patricio,20,PH,1544668349,66,-26.98,-56.83,27.58,1.66
92,antofagasta,75,CL,1544666400,72,-23.65,-70.4,18.0,3.6
93,nhulunbuy,75,AU,1544666400,74,-12.18,136.78,31.0,10.3
94,guerrero negro,0,MX,1544668644,94,27.97,-114.04,14.33,4.06
95,ponta do sol,44,PT,1544668644,94,-20.63,-46.0,17.23,1.41
96,colquiri,88,BO,1544668645,98,-17.42,-67.13,5.63,1.26
97,san cristobal,40,PH,1544666400,93,-0.39,-78.55,14.0,4.1
98,deloraine,88,AU,1544668686,92,49.18,-100.5,0.0,6.31
99,lianran,40,CN,1544666400,87,24.92,102.47,10.0,4.0
100,kahului,40,US,1544666160,66,20.89,-156.47,26.7,9.8
101,vila do maio,0,CV,1544668687,100,15.13,-23.22,22.95,7.31
102,puerto ayora,80,EC,1544668688,100,-0.74,-90.35,23.58,4.66
103,tuatapere,20,NZ,1544668688,78,-46.13,167.69,17.85,3.06
104,lufilufi,90,WS,1544662800,78,-13.87,-171.6,27.0,2.6
105,saskylakh,36,RU,1544668689,70,71.97,114.09,-20.55,5.01
106,dwarka,40,IN,1544666400,87,28.58,77.04,12.0,2.1
107,socuellamos,92,ES,1544668691,98,39.29,-2.79,6.83,5.46
108,ugoofaaru,80,MV,1544668691,99,5.67,73.0,28.6,3.91
109,kudahuvadhoo,64,MV,1544668692,100,2.67,72.89,28.43,4.31
110,sarankhola,0,BD,1544668692,66,22.31,89.79,23.5,2.41
111,longyearbyen,90,SJ,1544667600,94,78.22,15.63,2.0,17.5
112,narsaq,0,GL,1544668693,51,60.91,-46.05,-20.97,0.96
113,bako,0,ET,1544668694,41,9.68,6.4,20.63,3.96
114,coihaique,0,CL,1544666400,62,-45.58,-72.07,11.0,1.71
115,sao filipe,0,CV,1544668695,95,14.9,-24.5,23.63,7.96
116,salvador,75,PH,1544666400,88,-12.98,-38.48,25.0,6.7
117,batagay-alyta,0,RU,1544668696,15,67.8,130.41,-40.57,1.21
118,narovchat,92,RU,1544668697,94,53.88,43.7,-5.3,2.71
119,saint-philippe,1,CA,1544666400,84,45.36,-73.48,-12.0,1.41
120,rawson,0,AR,1544668698,32,-43.3,-65.11,17.88,7.81
121,narrabri,40,AU,1544667120,35,-30.33,149.78,32.0,9.3
122,grand-santi,88,GF,1544668700,98,4.27,-54.38,22.93,1.06
123,ayan,36,RU,1544668700,91,40.67,33.6,-5.42,1.61
124,tiznit,24,MA,1544668701,97,29.7,-9.73,10.33,1.76
125,caravelas,80,BR,1544668701,100,-17.73,-39.27,25.3,4.81
126,goba,0,ET,1544668702,71,7.01,39.97,3.45,0.51
127,kharp,56,RU,1544668702,83,66.82,65.8,-10.67,5.71
128,olinala,0,MX,1544668703,75,17.83,-98.85,14.1,0.91
129,mount gambier,90,AU,1544667300,100,-37.83,140.78,13.0,9.8
130,arlit,20,NE,1544668704,55,18.74,7.39,12.35,2.96
131,dingle,76,PH,1544668704,76,11.0,122.67,27.93,6.71
132,batemans bay,68,AU,1544668705,84,-35.71,150.18,23.35,1.96
133,saint-augustin,90,FR,1544666400,100,44.83,-0.61,7.0,5.1
134,aswan,0,EG,1544662800,58,24.09,32.9,12.0,2.6
135,luderitz,0,DE,1544668707,81,-26.65,15.16,15.8,7.91
136,superior,90,US,1544665980,81,47.19,-114.89,-0.6,3.6
137,aklavik,90,CA,1544666400,76,68.22,-135.01,-21.0,3.56
138,dikson,36,RU,1544668708,92,73.51,80.55,-9.02,9.66
139,joniskis,90,LT,1544664000,100,56.24,23.62,-2.0,5.7
140,san carlos,48,PH,1544668710,56,9.66,-68.59,26.45,2.86
141,tilichiki,8,RU,1544668710,60,60.47,166.1,-32.97,1.76
142,alihe,0,CN,1544668711,69,50.57,123.73,-20.8,1.61
143,shingu,20,JP,1544666400,57,33.72,135.99,10.0,3.6
144,amahai,8,ID,1544668712,98,-3.31,129.0,30.13,4.01
145,salalah,0,OM,1544665800,56,17.01,54.1,22.0,2.6
146,peniche,75,PT,1544666400,87,39.36,-9.38,15.0,3.6
147,marienburg,75,SR,1544667600,91,52.12,9.98,1.0,3.6
148,ahuimanu,40,US,1544666760,94,21.44,-157.84,26.1,4.1
149,merritt,64,CA,1544668621,62,50.11,-120.79,0.48,3.11
150,te anau,56,NZ,1544668715,70,-45.41,167.72,18.98,1.61
151,beyneu,88,KZ,1544668756,92,45.32,55.19,0.83,7.01
152,nanga eboko,32,CM,1544668756,100,4.68,12.37,19.6,1.91
153,nizwa,0,OM,1544668757,72,22.93,57.53,8.73,1.01
154,smithers,90,CA,1544667540,67,54.78,-127.17,0.0,3.6
155,east london,12,ZA,1544668709,100,-33.02,27.91,20.88,6.26
156,hermanus,20,ZA,1544668758,94,-34.42,19.24,8.6,1.06
157,nabire,24,ID,1544668759,78,-3.36,135.5,26.88,1.21
158,san quintin,0,PH,1544668759,62,17.54,120.52,27.88,5.11
159,progreso,0,PH,1544666400,49,-34.68,-56.22,20.0,6.7
160,dembi dolo,36,ET,1544668760,90,8.53,34.8,16.38,1.31
161,cabo san lucas,20,MX,1544665620,72,22.89,-109.91,21.0,6.2
162,eureka,75,US,1544667360,96,40.8,-124.16,8.0,1.46
163,bonthe,32,SL,1544668762,93,7.53,-12.5,24.88,0.96
164,roma,0,AU,1544667600,56,41.89,12.48,8.0,1.5
165,caraballeda,20,VE,1544666400,88,10.61,-66.85,24.0,6.41
166,calabozo,100,VE,1544668764,43,8.92,-67.43,31.88,7.11
167,dudinka,80,RU,1544668574,90,69.41,86.18,-10.67,8.61
168,semnan,0,IR,1544662800,60,35.58,53.39,5.0,1.0
169,shibukawa,0,JP,1544668765,52,36.5,139.0,4.35,1.81
170,lebu,0,CL,1544662800,76,8.96,38.73,11.0,5.7
171,phalaborwa,0,ZA,1544666400,73,-23.95,31.14,22.0,1.5
172,birao,0,CF,1544668767,42,10.3,22.78,15.1,4.36
173,fort nelson,20,CA,1544666400,79,58.81,-122.69,-6.0,2.6
174,grand-lahou,64,CI,1544668768,94,5.24,-5.0,24.0,0.81
175,camrose,20,GB,1544666400,58,53.01,-112.84,-4.0,5.7
176,mandawar,92,IN,1544668769,100,29.49,78.13,11.7,1.86
177,klaksvik,56,FO,1544667600,87,62.23,-6.59,8.0,8.7
178,muhos,8,FI,1544667600,92,64.81,26.0,-5.0,2.6
179,kruisfontein,8,ZA,1544668771,91,-34.0,24.73,16.75,4.91
180,kuusamo,0,FI,1544667600,91,65.96,29.19,-19.0,0.5
181,praya,75,ID,1544666400,70,-8.71,116.27,31.0,2.6
182,palmas de monte alto,92,BR,1544668773,73,-14.26,-43.16,22.5,5.11
183,santa fe,92,PH,1544668774,77,-31.62,-60.7,24.7,4.76
184,kungurtug,0,RU,1544668774,50,50.6,97.53,-26.5,1.21
185,aripuana,24,BR,1544668775,95,-9.17,-60.63,24.35,1.06
186,baiyin,20,CN,1544666400,79,36.55,104.13,-5.0,1.0
187,beirut,40,LB,1544666400,63,33.9,35.48,16.0,6.2
188,lorengau,68,PG,1544668776,98,-2.02,147.27,29.7,1.51
189,crowley,1,US,1544667300,87,30.21,-92.37,16.0,8.2
190,saint-georges,0,CA,1544668594,62,46.12,-70.67,-22.4,1.11
191,san andres,64,PH,1544668778,100,13.32,122.68,27.08,9.56
192,chokurdakh,44,RU,1544668779,60,70.62,147.9,-32.72,5.21
193,sitka,0,US,1544668779,83,37.17,-99.65,1.58,3.91
194,geraldton,90,AU,1544666700,86,49.72,-86.95,-3.0,3.1
195,ostrovnoy,0,RU,1544668781,88,68.05,39.51,-7.42,6.21
196,kisangani,24,CD,1544668781,98,0.52,25.21,20.98,0.46
197,qaanaaq,80,GL,1544668782,97,77.48,-69.36,-14.2,1.36
198,puerto del rosario,20,ES,1544666400,63,28.5,-13.86,19.0,5.1
199,soc trang,75,VN,1544666400,78,9.6,105.98,28.0,3.6
200,padang,20,ID,1544666400,83,-0.92,100.36,27.0,3.6
201,taranagar,88,IN,1544668783,95,28.67,75.04,10.5,2.16
202,maniitsoq,0,GL,1544668784,100,65.42,-52.9,-10.07,4.11
203,cerritos,1,MX,1544666280,90,33.86,-118.05,16.1,2.26
204,tabou,44,CI,1544668785,100,4.42,-7.36,27.13,0.56
205,domingos martins,20,BR,1544666400,83,-20.36,-40.66,26.0,5.1
206,fairbanks,75,US,1544666160,78,64.84,-147.72,-14.1,1.5
207,gusau,0,NG,1544668827,59,12.17,6.66,15.3,1.51
208,karabulak,56,RU,1544668827,78,44.91,78.49,-6.42,0.66
209,radesti,40,RO,1544666400,80,46.27,23.72,1.0,2.1
210,honiara,92,SB,1544668828,100,-9.43,159.96,26.0,0.41
211,bethel,20,US,1544668620,91,60.79,-161.76,-13.3,4.1
212,mareeba,20,AU,1544666400,70,-16.99,145.42,30.0,4.1
213,pevek,64,RU,1544668831,100,69.7,170.27,-25.25,0.96
214,axim,44,GH,1544668831,100,4.87,-2.24,27.05,2.61
215,black river,75,JM,1544666400,78,18.03,-77.85,25.0,2.1
216,methven,76,NZ,1544668832,100,-43.63,171.65,15.0,2.11
217,lompoc,1,US,1544666280,66,34.64,-120.46,14.4,3.6
218,sao felix do xingu,68,BR,1544668833,100,-6.64,-51.99,22.13,0.71
219,metro,36,ID,1544668834,92,-5.11,105.31,28.7,2.21
220,vila,0,PT,1544667600,99,45.18,8.4,1.0,2.1
221,neepawa,90,CA,1544666400,87,50.23,-99.46,0.0,5.1
222,basco,1,PH,1544668500,100,40.33,-91.2,2.8,4.1
223,caiaponia,0,BR,1544668836,87,-16.96,-51.81,21.88,0.96
224,alexandria,75,ZA,1544667300,71,31.31,-92.44,14.4,5.1
225,los llanos de aridane,0,ES,1544666400,64,28.66,-17.92,20.0,3.6
226,talnakh,80,RU,1544668838,85,69.49,88.39,-12.3,7.71
227,tailai,0,CN,1544668838,66,46.39,123.41,-15.02,4.61
228,carnarvon,12,ZA,1544668839,50,-30.97,22.13,8.6,2.36
229,pachmarhi,0,IN,1544668839,69,22.47,78.44,14.6,1.21
230,esperance,20,AU,1544666400,78,10.24,-61.45,25.0,1.0
231,puri,40,IN,1544666400,94,-7.54,112.45,27.0,3.1
232,mount isa,40,AU,1544666400,34,-20.73,139.49,35.0,3.6
233,yulara,0,AU,1544666400,28,-25.24,130.99,28.0,5.7
234,new norfolk,75,AU,1544666400,56,-42.78,147.06,23.0,7.2
235,ossora,48,RU,1544668843,100,59.24,163.07,-21.62,2.41
236,labytnangi,68,RU,1544668843,85,66.66,66.39,-10.92,6.36
237,lac du bonnet,92,CA,1544668844,86,50.25,-96.06,-3.15,6.41
238,nome,90,AU,1544667300,82,30.04,-94.42,17.3,1.5
239,wasilla,90,US,1544668080,85,61.58,-149.44,-3.9,1.5
240,makakilo city,40,US,1544666760,94,21.35,-158.09,26.1,4.1
241,bafoulabe,92,ML,1544668845,53,13.81,-10.83,21.6,2.11
242,matay,0,KZ,1544668846,90,28.42,30.79,5.63,1.31
243,hasaki,40,JP,1544666400,42,35.73,140.83,8.0,0.5
244,la romana,20,ES,1544666400,94,18.43,-68.97,23.0,2.6
245,kroya,80,ID,1544668847,93,-6.5,108.06,26.85,1.56
246,vung tau,24,VN,1544668673,91,10.35,107.08,28.18,8.21
247,katubao,40,PH,1544666400,46,5.89,124.83,33.0,4.1
248,saint george,75,BB,1544665800,76,39.45,22.34,3.0,1.36
249,etchoropo,0,MX,1544668849,97,26.77,-109.67,15.5,1.51
250,santa cruz,1,PH,1544667300,62,36.97,-122.03,15.0,2.1
251,alamogordo,1,US,1544667300,61,32.9,-105.96,11.1,4.1
252,lavrentiya,12,RU,1544668852,100,65.58,-170.99,-12.17,16.16
253,zhangjiakou,0,CN,1544668853,45,40.77,114.88,-9.62,1.96
254,casablanca,92,MA,1544666400,100,33.6,-7.62,12.0,3.6
255,kununurra,40,AU,1544666400,63,-15.77,128.74,33.0,7.2
256,abha,40,SA,1544666400,93,18.22,42.5,15.0,2.1
257,chudniv,88,UA,1544668855,92,50.05,28.12,-1.67,6.26
258,ninghai,40,CN,1544666400,70,29.29,121.42,6.0,3.0
259,gao,0,ML,1544668856,70,16.28,-0.04,12.18,1.26
260,norman wells,90,CA,1544666400,76,65.28,-126.83,-21.0,2.1
261,maryborough,88,AU,1544668897,45,-25.54,152.7,29.43,1.86
262,egvekinot,32,RU,1544668898,65,66.32,-179.17,-20.22,4.31
263,twistringen,75,DE,1544667600,86,52.8,8.64,3.0,4.1
264,topchikha,75,RU,1544666400,92,52.82,83.12,-7.0,3.0
265,namatanai,24,PG,1544668900,91,-3.66,152.44,30.58,2.31
266,pacific grove,1,US,1544667300,79,36.62,-121.92,13.9,1.5
267,warmbad,76,NA,1544667600,86,50.67,13.08,-1.0,1.5
268,rio pomba,76,BR,1544668901,96,-21.28,-43.18,18.2,1.26
269,batagay,48,RU,1544668902,16,67.65,134.64,-40.52,1.21
270,gizo,40,SB,1544667600,63,31.8,34.94,16.0,3.1
271,lazaro cardenas,75,MX,1544665200,87,28.39,-105.62,8.0,2.96
272,kutum,0,SD,1544668903,50,14.2,24.66,7.83,4.31
273,cidreira,24,BR,1544668904,89,-30.17,-50.22,21.63,3.46
274,piacabucu,20,BR,1544668904,89,-10.41,-36.43,23.95,2.96
275,quesnel,90,CA,1544666400,51,52.98,-122.49,3.0,7.2
276,kodiak,1,US,1544667300,55,39.95,-94.76,3.3,4.1
277,barguzin,32,RU,1544668906,67,53.62,109.63,-21.12,1.06
278,zhengjiatun,0,CN,1544668838,61,43.51,123.51,-12.25,5.81
279,vanavara,88,RU,1544668907,78,60.35,102.28,-15.7,2.96
280,madisonville,90,US,1544668020,59,37.33,-87.5,10.0,5.7
281,muroto,40,JP,1544666400,100,33.37,134.14,11.0,2.1
282,torbay,90,CA,1544666400,92,47.66,-52.73,-3.0,8.2
283,virginia beach,75,US,1544667600,73,36.85,-75.98,5.6,2.1
284,ilinskiy,90,RU,1544666400,92,55.62,38.12,0.0,5.0
285,petropavlovsk-kamchatskiy,0,RU,1544666400,55,53.05,158.65,-13.0,2.0
286,mahebourg,40,MU,1544666400,83,-20.41,57.7,25.0,2.1
287,flin flon,0,CA,1544668912,84,54.77,-101.88,-7.32,3.51
288,burlington,90,US,1544666820,86,43.32,-79.8,2.0,5.1
289,sofiyivka,90,UA,1544666400,96,48.05,33.87,0.0,4.0
290,port blair,64,IN,1544668914,100,11.67,92.75,28.43,10.16
291,pisco,0,PE,1544666400,77,-13.71,-76.2,21.0,4.6
292,vestmannaeyjar,80,IS,1544668915,92,63.44,-20.27,6.95,12.81
293,russellville,90,US,1544667300,76,35.28,-93.13,11.0,3.6
294,beidao,68,CN,1544668916,83,34.57,105.89,-5.2,0.76
295,bogorodskoye,0,RU,1544668917,62,52.37,140.44,-22.25,1.31
296,jacmel,40,HT,1544666340,74,18.24,-72.54,27.0,2.6
297,boca do acre,12,BR,1544668917,91,-8.76,-67.39,25.05,1.46
298,belaya gora,56,RU,1544668918,10,68.54,146.19,-35.9,1.51
299,komsomolskiy,68,UZ,1544668919,93,67.55,63.78,-4.55,8.16
300,sao joao da barra,32,BR,1544668919,98,-21.64,-41.05,26.0,9.16
301,aksarka,44,RU,1544668920,78,66.56,67.8,-10.9,7.91
302,kavieng,24,PG,1544668920,100,-2.57,150.8,30.2,2.16
303,liuhe,48,CN,1544668921,59,42.28,125.73,-12.57,2.46
304,luzhou,80,CN,1544668921,99,28.89,105.45,6.13,1.26
305,hambantota,75,LK,1544663400,100,6.12,81.12,22.0,1.0
306,dieppe,75,FR,1544666400,90,49.92,1.08,0.0,7.2
307,praia,64,CV,1544668923,94,-20.25,-43.81,16.05,0.76
308,uray,80,RU,1544668924,92,60.13,64.8,-6.3,2.61
309,kenai,90,US,1544668740,92,60.55,-151.26,-5.6,2.1
310,seymchan,8,RU,1544668925,14,62.93,152.39,-40.0,0.81
311,madison,90,US,1544668500,88,43.07,-89.38,0.0,3.6
312,yar-sale,56,RU,1544668926,81,66.83,70.83,-10.27,8.56
313,gualeguaychu,0,AR,1544668926,87,-33.01,-58.51,20.58,4.06
314,lindi,36,TZ,1544668967,92,-10.0,39.71,23.95,0.91
315,zorritos,90,PE,1544666400,33,-3.68,-80.68,32.0,1.5
316,san luis,75,PH,1544668800,53,-33.3,-66.34,24.0,3.1
317,tamiahua,24,MX,1544668969,92,21.28,-97.45,23.38,9.01
318,chapais,1,CA,1544666400,75,49.78,-74.86,-26.0,2.66
319,benavente,75,PT,1544666400,100,38.98,-8.82,16.0,8.7
320,mount darwin,64,ZW,1544668972,98,-16.77,31.58,18.1,1.16
321,turukhansk,76,RU,1544668972,79,65.8,87.96,-12.52,5.46
322,key largo,75,US,1544666160,73,25.09,-80.45,19.1,2.1
323,uspenskaya,68,RU,1544668973,93,45.78,41.07,0.05,3.06
324,puerto narino,90,CO,1544666400,100,-3.77,-70.38,23.0,1.0
325,bitung,40,ID,1544666400,70,1.44,125.19,30.0,2.6
326,kieta,12,PG,1544668975,93,-6.22,155.63,29.55,1.86
327,saldanha,92,ZA,1544668975,99,41.42,-6.55,9.23,6.56
328,vaitape,64,PF,1544668976,100,-16.52,-151.75,27.7,2.21
329,zhigansk,48,RU,1544668976,44,66.77,123.37,-29.47,3.96
330,milas,0,TR,1544667600,100,37.31,27.78,1.0,1.5
331,qostanay,0,KZ,1544666400,91,53.17,63.58,-16.0,1.0
332,krasnovishersk,88,RU,1544668978,97,60.4,57.08,-5.07,1.61
333,neuquen,0,AR,1544666400,35,-38.95,-68.06,23.0,2.6
334,baghdad,88,IQ,1544668200,100,33.3,44.38,11.0,2.6
335,quatre cocos,40,MU,1544666400,83,-20.21,57.76,25.0,2.1
336,belmonte,92,PT,1544668980,96,40.36,-7.35,10.45,5.56
337,paamiut,80,GL,1544668980,98,61.99,-49.67,-0.77,4.81
338,ketchikan,90,US,1544666160,89,55.34,-131.65,6.1,7.2
339,port macquarie,44,AU,1544666400,58,-31.43,152.91,28.0,7.7
340,savalou,0,BJ,1544668982,84,7.93,1.98,23.55,2.61
341,flic en flac,40,MU,1544666400,83,-20.27,57.36,25.0,2.1
342,maragogi,92,BR,1544668838,88,-9.01,-35.22,24.35,3.31
343,souillac,90,FR,1544666400,100,45.6,-0.6,6.0,2.6
344,boguchany,88,RU,1544668984,81,58.38,97.46,-12.95,2.86
345,rossland,92,CA,1544668984,72,49.08,-117.8,-2.0,0.96
346,vardo,1,NO,1544667900,70,39.62,-77.74,4.0,2.46
347,kikwit,20,CD,1544668986,96,-5.04,18.82,21.33,1.81
348,alghero,0,IT,1544667600,87,40.56,8.32,8.0,2.6
349,megion,90,RU,1544666400,92,61.04,76.11,-10.0,4.0
350,luwuk,44,ID,1544668987,87,-0.95,122.79,29.23,1.06
351,jaroslaw,90,PL,1544668200,100,50.02,22.68,-1.0,2.6
352,sao mateus,88,BR,1544668988,96,-18.72,-39.86,25.35,3.76
353,erzin,0,RU,1544667600,75,36.95,36.2,12.0,2.6
354,premnitz,75,DE,1544667600,93,52.53,12.34,2.0,2.1
355,sur,0,OM,1544668990,100,22.57,59.53,22.0,2.46
356,richards bay,48,ZA,1544668991,88,-28.77,32.06,21.5,3.21
357,eyl,0,SO,1544668991,100,7.98,49.82,23.38,7.31
358,aqtobe,0,KZ,1544666400,52,50.28,57.21,-9.0,4.0
359,iskateley,68,RU,1544668992,88,67.68,53.15,-3.5,6.26
360,coreau,8,BR,1544669033,81,-3.53,-40.66,22.68,2.61
361,mizan teferi,48,ET,1544669034,95,6.99,35.58,14.38,1.36
362,sechura,56,PE,1544669034,82,-5.56,-80.82,21.55,5.01
363,broken hill,75,AU,1544666400,42,-31.97,141.45,20.0,11.8
364,beringovskiy,24,RU,1544669035,100,63.05,179.32,-18.52,11.96
365,north bend,75,US,1544666160,96,43.41,-124.22,8.3,2.1
366,aykhal,64,RU,1544669037,69,65.95,111.51,-24.17,1.61
367,changtu,56,CN,1544669037,58,42.78,124.11,-13.45,3.41
368,san-pedro,8,CI,1544669038,96,4.75,-6.64,23.93,1.01
369,praia da vitoria,20,PT,1544666400,87,38.73,-27.07,11.0,3.41
370,lata,92,PT,1544669039,100,30.78,78.62,-0.07,0.71
371,songea,40,TZ,1544666400,93,-10.68,35.65,19.0,1.16
372,puteyets,80,RU,1544669040,89,65.17,57.09,-5.82,3.56
373,lagoa,75,PT,1544666400,88,37.14,-8.45,17.0,7.2
374,sauda,0,NO,1544669041,100,59.65,6.35,-18.02,1.06
375,serenje,92,ZM,1544669042,98,-13.23,30.22,16.58,1.66
376,rio blanco,88,MX,1544669043,98,-16.34,-67.55,14.0,0.61
377,kuytun,36,RU,1544669043,68,54.34,101.51,-15.95,2.11
378,tulu bolo,0,ET,1544669044,86,8.66,38.21,2.88,0.91
379,constantine,0,DZ,1544666400,93,36.36,6.61,2.0,1.0
380,shakhovskaya,92,RU,1544669045,87,56.03,35.51,-1.82,6.56
381,kahramanmaras,0,TR,1544669045,88,37.58,36.93,-5.12,0.86
382,margate,75,AU,1544666400,56,-43.03,147.26,23.0,7.2
383,farafangana,88,MG,1544669046,97,-22.82,47.83,26.5,7.01
384,yarkovo,90,RU,1544666400,85,54.81,82.6,-8.0,4.0
385,chake chake,0,TZ,1544669047,99,-5.25,39.77,27.93,3.71
386,sungairaya,48,ID,1544669048,83,0.7,108.9,29.1,1.41
387,miri,0,MY,1544669049,64,10.31,9.75,12.83,1.51
388,manta,0,IT,1544669049,66,45.1,24.1,-12.15,1.16
389,waingapu,36,ID,1544669050,73,-9.65,120.26,30.83,3.11
390,xifeng,56,CN,1544669050,61,42.73,124.72,-14.42,2.96
391,necochea,0,AR,1544669051,66,-38.55,-58.74,16.45,5.71
392,tecoanapa,40,MX,1544665980,83,16.99,-99.26,27.0,2.1
393,okhotsk,0,RU,1544669052,100,59.36,143.24,-24.5,2.61
394,port hardy,90,CA,1544666400,93,50.7,-127.42,5.0,7.2
395,panorama,8,BR,1544669053,68,-21.35,-51.86,25.1,1.11
396,cariacica,20,BR,1544666400,83,-20.26,-40.42,26.0,5.1
397,coquimbo,0,CL,1544666400,82,-29.95,-71.34,16.0,3.96
398,grass valley,1,AU,1544667300,57,39.22,-121.06,13.9,2.1
399,isangel,88,VU,1544669056,100,-19.55,169.27,25.35,5.41
400,mehamn,88,NO,1544669056,94,71.03,27.85,3.3,9.41
401,allada,20,BJ,1544666400,83,6.67,2.15,28.0,3.6
402,kalmunai,92,LK,1544669057,93,7.42,81.82,23.88,4.36
403,san ramon,100,PH,1544668892,99,12.92,-85.84,19.55,0.86
404,manaus,40,BR,1544666400,94,-3.13,-59.98,24.0,1.0
405,marsh harbour,64,BS,1544669059,100,26.54,-77.06,23.05,6.71
406,pushkinskiye gory,88,RU,1544669059,89,57.02,28.91,-2.45,5.26
407,chiredzi,0,ZW,1544669060,91,-21.05,31.67,17.55,1.36
408,manggar,64,ID,1544669060,97,-2.88,108.27,28.45,3.01
409,kochki,80,RU,1544669061,88,54.33,80.49,-13.65,2.86
410,iqaluit,90,CA,1544666400,78,63.75,-68.52,-9.0,3.1
411,feldioara,68,RO,1544669062,92,45.82,25.59,-4.95,1.76
412,zabid,0,YE,1544669062,68,14.2,44.5,1.73,0.71
413,olinda,20,AU,1544666400,78,-2.03,-79.75,25.0,6.7
414,bathsheba,20,BB,1544666400,69,13.22,-59.52,26.0,6.7
415,ancud,64,CL,1544666400,87,-41.87,-73.83,8.0,2.1
416,sao gabriel da cachoeira,88,BR,1544669105,98,-0.13,-67.09,22.18,1.16
417,brazzaville,20,CG,1544666400,88,-4.27,15.27,25.0,1.0
418,beloha,36,MG,1544669106,93,-25.17,45.06,23.2,1.71
419,atar,0,MR,1544669106,39,20.52,-13.05,11.7,2.96
420,severo-yeniseyskiy,64,RU,1544669107,74,60.37,93.04,-13.4,2.86
421,gulu,12,UG,1544669091,91,2.77,32.3,13.83,1.26
422,balaipungut,68,ID,1544669108,99,1.11,101.31,26.2,1.31
423,san vicente de canete,24,PE,1544669109,95,-13.08,-76.38,16.5,0.51
424,san policarpo,92,PH,1544669080,100,12.18,125.51,26.23,2.56
425,meulaboh,20,ID,1544669110,100,4.14,96.13,27.23,2.31
426,port hawkesbury,90,CA,1544667180,85,45.62,-61.36,-4.0,5.7
427,ternate,75,ID,1544666400,66,14.29,120.72,29.0,2.6
428,kargasok,80,RU,1544669111,83,59.06,80.87,-17.75,1.76
429,requena,20,ES,1544666400,58,39.49,-1.1,15.0,5.7
430,bonfim,0,BR,1544669112,70,3.36,-59.84,26.83,5.11
431,wewak,48,PG,1544669113,97,-3.55,143.63,26.93,1.21
432,suicheng,0,CN,1544669114,64,33.9,117.93,3.68,2.81
433,thompson,90,US,1544666400,92,55.74,-97.86,-6.0,2.6
434,takoradi,64,GH,1544669115,100,4.89,-1.75,25.33,1.71
435,vanimo,8,PG,1544669115,100,-2.67,141.3,28.98,4.51
436,san ignacio,0,PH,1544666400,76,-36.8,-72.03,14.0,2.6
437,kaeo,12,NZ,1544669117,76,-35.1,173.78,21.6,4.86
438,tautira,20,PF,1544668200,66,-17.73,-149.15,31.0,2.6
439,bure,0,CH,1544669118,56,10.52,10.33,15.35,2.06
440,nuuk,68,GL,1544665800,79,64.17,-51.74,-4.0,3.1
441,broome,64,AU,1544667600,75,52.47,1.45,5.0,4.6
442,sibolga,24,ID,1544669119,90,1.74,98.78,25.43,0.96
443,camopi,92,GF,1544669120,100,3.17,-52.33,22.7,1.06
444,losinyy,0,RU,1544668200,79,57.14,61.07,-5.0,1.11
445,payakumbuh,68,ID,1544669121,93,-0.23,100.63,24.93,1.36
446,tara,75,RU,1544666400,75,33.0,130.15,8.0,1.5
447,lasa,40,IT,1544666400,51,34.92,32.53,15.0,7.2
448,almaznyy,75,RU,1544668200,86,48.03,40.04,1.0,5.0
449,berlevag,80,NO,1544669123,100,70.86,29.09,3.0,9.31
450,port arthur,90,US,1544667300,100,29.9,-93.93,18.0,2.6
451,khorixas,0,NA,1544669124,82,-20.37,14.96,9.75,1.26
452,felanitx,20,ES,1544666400,100,39.47,3.15,8.0,1.5
453,vaksdal,40,NO,1544665800,55,60.48,5.74,2.0,7.2
454,moron,80,MN,1544669125,95,10.49,-68.2,21.18,1.31
455,tucupita,44,VE,1544669126,76,9.06,-62.05,26.13,3.11
456,maltahohe,0,NA,1544668866,51,-24.83,16.98,10.93,0.86
457,phan thiet,0,VN,1544668839,81,10.93,108.1,28.75,10.41
458,sibut,0,CF,1544669127,73,5.73,19.09,17.2,1.51
459,yerbogachen,88,RU,1544669128,73,61.28,108.01,-14.75,3.46
460,dalaba,44,GN,1544669128,88,10.69,-12.25,16.38,1.16
461,linxia,0,CN,1544668951,59,35.6,103.21,-5.95,1.16
462,venezuela,0,CU,1544669129,93,21.74,-78.8,21.73,5.06
463,camacha,75,PT,1544666400,82,33.08,-16.33,19.0,5.7
464,roswell,1,US,1544667300,60,33.39,-104.52,11.0,6.2
465,yatou,75,CN,1544666400,94,3.63,9.81,26.0,1.5
466,kodinsk,80,RU,1544669171,68,58.6,99.18,-15.57,2.41
467,flinders,90,AU,1544666400,100,-34.58,150.85,20.0,6.2
468,saiha,0,IN,1544669172,77,22.49,92.98,19.2,1.06
469,tieli,56,CN,1544669173,58,46.98,128.05,-13.65,2.11
470,mago,0,RU,1544669173,63,53.27,140.15,-22.32,1.36
471,hofn,92,IS,1544669174,100,64.25,-15.21,5.55,5.81
472,lubango,0,AO,1544669174,83,-14.92,13.49,11.75,0.11
473,quime,48,BO,1544669175,66,-16.98,-67.22,13.93,0.46
474,tomatlan,32,MX,1544669175,88,19.93,-105.25,20.33,1.26
475,canmore,1,CA,1544666400,39,51.09,-115.35,-1.0,7.2
476,hecun,92,CN,1544669176,73,29.94,119.31,2.83,1.51
477,bambous virieux,40,MU,1544666400,83,-20.34,57.76,25.0,2.1
478,russell,0,US,1544669177,67,-33.01,-68.8,12.68,0.86
479,concepcion,44,PH,1544669178,60,9.56,-73.66,28.13,0.71
480,shieli,32,KZ,1544669179,81,44.18,66.74,-7.2,1.81
481,hidalgo,1,MX,1544667300,74,26.1,-98.26,21.7,6.2
482,pitimbu,20,BR,1544666400,88,-7.47,-34.81,24.0,2.6
483,ufimskiy,80,RU,1544669180,70,56.71,58.05,-11.15,1.11
484,muros,75,ES,1544667420,93,42.77,-9.06,10.0,1.5
485,qasigiannguit,75,GL,1544665800,85,68.82,-51.19,-10.0,2.1
486,goderich,80,CA,1544669182,90,43.74,-81.71,0.73,8.11
487,canutama,24,BR,1544669183,97,-6.53,-64.38,23.75,1.51
488,timbiras,88,BR,1544669183,96,-4.26,-43.94,23.13,1.16
489,kathu,0,TH,1544669184,32,-27.7,23.05,16.18,4.66
490,lillooet,75,CA,1544666400,74,50.69,-121.94,-2.0,7.7
491,taber,40,CA,1544666400,47,49.79,-112.14,1.0,8.2
492,chambersburg,1,US,1544667900,78,39.94,-77.66,3.9,1.96
493,kirakira,64,SB,1544669187,100,-10.46,161.92,28.23,3.56
494,comal,90,ID,1544666160,82,36.24,-92.77,10.6,2.6
495,contamana,12,PE,1544669188,88,-7.35,-75.01,24.5,1.56
496,guerrero,75,MX,1544666400,88,-24.19,-65.45,21.0,0.76
497,rampura,12,IN,1544669189,100,24.47,75.44,13.35,2.26
498,banff,0,GB,1544668957,59,51.18,-115.57,-8.12,1.86
499,alofi,75,NU,1544666400,74,-19.06,-169.92,27.0,5.1
500,maroua,0,CM,1544669191,43,10.6,14.33,16.98,3.61
501,oriximina,48,BR,1544669192,96,-1.77,-55.87,24.38,1.61
502,bilibino,44,RU,1544669192,8,68.06,166.44,-34.67,1.06
503,walvis bay,0,NA,1544666400,88,-22.95,14.51,17.0,3.1
504,pringsewu,68,ID,1544669193,86,-5.36,104.98,27.58,0.76
505,udachnyy,64,RU,1544669194,69,66.42,112.4,-20.82,1.66
506,kokoda,88,PG,1544669195,98,-8.88,147.74,21.83,0.96
507,plettenberg bay,36,ZA,1544669195,98,-34.05,23.37,17.48,4.01
508,corumba,8,BR,1544669196,82,-19.0,-57.65,24.85,0.76
509,san mateo ixtatan,24,GT,1544669196,100,15.83,-91.48,13.95,0.71
510,joshimath,76,IN,1544669174,93,30.57,79.57,-12.52,0.31
511,acajutla,0,SV,1544669197,62,13.59,-89.83,25.38,1.26
512,colares,75,PT,1544666400,100,38.8,-9.45,16.0,8.7
513,arkhangelsk,90,RU,1544668200,85,64.54,40.54,-12.0,1.11
514,buchanan,76,LR,1544669199,99,5.88,-10.05,26.58,2.31
515,thinadhoo,100,MV,1544670638,98,0.53,72.93,28.85,5.96
516,zhanaozen,12,KZ,1544670639,79,43.35,52.85,7.23,7.01
517,ewa beach,75,US,1544667660,94,21.32,-158.01,26.1,3.6
518,guarapari,20,BR,1544666400,83,-20.67,-40.5,26.0,5.1
519,morelia,75,CO,1544669220,82,19.7,-101.19,15.0,3.1
520,guozhen,48,CN,1544670638,93,29.3,113.14,4.63,1.66
521,rosetown,0,IE,1544670491,82,51.55,-107.99,-4.27,6.21
522,sorong,44,ID,1544670522,100,-0.86,131.25,28.05,1.66
523,winnemucca,1,US,1544666160,77,40.97,-117.74,-3.9,1.06
524,prince george,90,US,1544666400,47,53.92,-122.75,3.0,10.3
525,heiligenhafen,20,DE,1544670779,100,54.37,10.98,3.43,7.01
526,baturaja,68,ID,1544670780,100,-4.12,104.17,26.68,1.86
527,wick,44,GB,1544669400,70,51.45,-2.43,6.0,8.2
528,loandjili,75,CG,1544666400,88,-4.77,11.87,26.0,4.1
529,doha,0,QA,1544668200,77,25.29,51.53,19.0,1.5
530,makkaveyevo,0,RU,1544668200,75,51.75,113.95,-26.0,1.0
531,qeshm,0,IR,1544668200,93,26.96,56.27,17.0,2.1
532,lyuban,92,RU,1544670785,89,52.8,28.0,-1.42,7.61
533,kabinda,44,CD,1544670786,95,-6.14,24.49,19.3,1.31
534,kingsport,90,US,1544668500,74,36.55,-82.56,5.0,2.86
535,tamworth,90,AU,1544668200,42,-31.09,150.93,29.0,8.7
536,nuzvid,40,IN,1544668200,83,16.79,80.85,24.0,1.5
537,gazanjyk,0,TM,1544670790,70,39.24,55.52,1.05,1.16
538,rongcheng,48,CN,1544670790,76,37.16,122.42,5.0,5.71
539,buraydah,0,SA,1544666400,100,26.33,43.97,15.0,3.6
540,mwaro,56,BI,1544670794,97,-3.52,29.71,12.3,1.36
541,temirtau,40,RU,1544668200,75,50.05,72.96,-25.0,1.0
542,serebryansk,88,KZ,1544670795,89,49.68,83.3,-12.32,1.06
543,bhinmal,0,IN,1544670796,92,25.01,72.27,10.85,1.61
544,saint-pierre,0,FR,1544668200,100,48.95,4.24,0.0,4.1
545,sesheke,0,ZM,1544670799,63,-17.47,24.29,17.45,2.11
546,pacifica,20,US,1544669760,82,37.61,-122.49,14.0,2.1
547,sioux lookout,90,CA,1544666400,92,50.1,-91.92,-3.0,3.6
548,parambu,88,BR,1544670801,50,-6.21,-40.7,24.63,3.36
549,waipawa,92,NZ,1544670802,91,-39.94,176.59,17.85,2.76
550,robertsport,44,LR,1544670803,100,6.75,-11.37,28.25,1.96
551,sumbe,8,AO,1544670804,100,-11.2,13.84,21.85,0.46
552,xinmin,0,CN,1544668200,44,42.0,122.83,-7.0,5.0
553,jining,0,CN,1544670806,48,35.41,116.58,2.7,3.21
554,tulle,0,FR,1544668200,86,45.27,1.77,1.0,2.1
555,chitradurga,0,IN,1544670808,75,14.23,76.4,20.3,1.16
556,itaueira,44,BR,1544670849,52,-7.6,-43.03,23.85,3.66
557,naron,92,ES,1544668200,81,43.52,-8.15,10.0,5.1
558,scottsbluff,90,US,1544665980,78,41.87,-103.67,2.8,8.2
559,aloleng,8,PH,1544670851,86,16.13,119.78,30.0,1.26
560,cayenne,75,FR,1544668200,83,4.94,-52.33,26.0,3.6
561,wattegama,12,LK,1544670853,85,7.35,80.68,22.43,1.86
562,samarai,20,PG,1544670854,100,-10.62,150.67,29.63,4.06
563,opuwo,0,NA,1544670855,49,-18.06,13.84,12.38,1.81
564,byron bay,44,AU,1544668200,61,-28.65,153.62,32.0,9.8
565,elbrus,80,RU,1544670857,88,43.26,42.65,-7.4,0.26
566,lar,0,IN,1544670000,60,27.66,54.32,4.0,0.86
567,chulman,20,RU,1544670859,50,56.84,124.9,-31.82,1.11
568,merauke,32,ID,1544670860,85,-8.49,140.4,31.45,4.36
